[
    {
        "id": 8142566,
        "name": "Kertosonopilang",
        "state": "",
        "country": "ID",
        "coord": {
            "lon": 112.520599,
            "lat": -6.9856
        }
    },
    {
        "id": 8142567,
        "name": "Asempapak",
        "state": "",
        "country": "ID",
        "coord": {
            "lon": 112.564201,
            "lat": -6.995
        }
    },
    {
        "id": 8142568,
        "name": "Mojoasem",
        "state": "",
        "country": "ID",
        "coord": {
            "lon": 112.5728,
            "lat": -6.9965
        }
    },
    {
        "id": 8142569,
        "name": "Asemanis",
        "state": "",
        "country": "ID",
        "coord": {
            "lon": 112.5755,
            "lat": -6.9987
        }
    },
    {
        "id": 8142578,
        "name": "Kemeduran",
        "state": "",
        "country": "ID",
        "coord": {
            "lon": 112.557503,
            "lat": -6.916
        }
    },
    {
        "id": 8142588,
        "name": "Banyulegi",
        "state": "",
        "country": "ID",
        "coord": {
            "lon": 112.530998,
            "lat": -6.9123
        }
    },
    {
        "id": 8142598,
        "name": "Gosari",
        "state": "",
        "country": "ID",
        "coord": {
            "lon": 112.509499,
            "lat": -6.9391
        }
    },
    {
        "id": 8142603,
        "name": "Kebonagung",
        "state": "",
        "country": "ID",
        "coord": {
            "lon": 112.532204,
            "lat": -6.9435
        }
    },
    {
        "id": 8142604,
        "name": "Karangrejo",
        "state": "",
        "country": "ID",
        "coord": {
            "lon": 112.555099,
            "lat": -6.9523
        }
    },
    {
        "id": 8142605,
        "name": "Ketapang",
        "state": "",
        "country": "ID",
        "coord": {
            "lon": 112.554497,
            "lat": -6.9589
        }
    },
    {
        "id": 8142608,
        "name": "Bolo",
        "state": "",
        "country": "ID",
        "coord": {
            "lon": 112.5233,
            "lat": -6.9621
        }
    },
    {
        "id": 8142610,
        "name": "Wadeng",
        "state": "",
        "country": "ID",
        "coord": {
            "lon": 112.513901,
            "lat": -6.9664
        }
    },
    {
        "id": 8142611,
        "name": "Sambipondok",
        "state": "",
        "country": "ID",
        "coord": {
            "lon": 112.525002,
            "lat": -6.972
        }
    },
    {
        "id": 8142613,
        "name": "Glatik",
        "state": "",
        "country": "ID",
        "coord": {
            "lon": 112.538597,
            "lat": -6.971
        }
    },
    {
        "id": 8142615,
        "name": "Srowo",
        "state": "",
        "country": "ID",
        "coord": {
            "lon": 112.5644,
            "lat": -6.9838
        }
    },
    {
        "id": 8142617,
        "name": "Purwodadi",
        "state": "",
        "country": "ID",
        "coord": {
            "lon": 112.562302,
            "lat": -6.9856
        }
    },
    {
        "id": 8142618,
        "name": "Sedagaran",
        "state": "",
        "country": "ID",
        "coord": {
            "lon": 112.565102,
            "lat": -6.9857
        }
    },
    {
        "id": 8142619,
        "name": "Pengulu",
        "state": "",
        "country": "ID",
        "coord": {
            "lon": 112.5634,
            "lat": -6.9872
        }
    },
    {
        "id": 8142620,
        "name": "Kauman",
        "state": "",
        "country": "ID",
        "coord": {
            "lon": 112.563202,
            "lat": -6.9901
        }
    },
    {
        "id": 8142621,
        "name": "Mriyunan",
        "state": "",
        "country": "ID",
        "coord": {
            "lon": 112.566399,
            "lat": -6.9902
        }
    },
    {
        "id": 8142622,
        "name": "Bunderan",
        "state": "",
        "country": "ID",
        "coord": {
            "lon": 112.561401,
            "lat": -6.9908
        }
    },
    {
        "id": 8142703,
        "name": "Yuefeng",
        "state": "",
        "country": "CN",
        "coord": {
            "lon": 119.32048,
            "lat": 26.09379
        }
    },
    {
        "id": 8143439,
        "name": "Guxi",
        "state": "",
        "country": "CN",
        "coord": {
            "lon": 119.284378,
            "lat": 26.08971
        }
    },
    {
        "id": 8143440,
        "name": "Nanjie",
        "state": "",
        "country": "CN",
        "coord": {
            "lon": 119.290001,
            "lat": 26.087
        }
    },
    {
        "id": 8143441,
        "name": "Antai",
        "state": "",
        "country": "CN",
        "coord": {
            "lon": 119.293472,
            "lat": 26.0823
        }
    },
    {
        "id": 8143442,
        "name": "Gudong",
        "state": "",
        "country": "CN",
        "coord": {
            "lon": 119.29628,
            "lat": 26.09318
        }
    },
    {
        "id": 8143443,
        "name": "Wenquan",
        "state": "",
        "country": "CN",
        "coord": {
            "lon": 119.303429,
            "lat": 26.09992
        }
    },
    {
        "id": 8143444,
        "name": "Wufeng",
        "state": "",
        "country": "CN",
        "coord": {
            "lon": 119.278397,
            "lat": 26.105181
        }
    },
    {
        "id": 8143445,
        "name": "Huada",
        "state": "",
        "country": "CN",
        "coord": {
            "lon": 119.287239,
            "lat": 26.10074
        }
    },
    {
        "id": 8143712,
        "name": "Dongjie",
        "state": "",
        "country": "CN",
        "coord": {
            "lon": 119.294487,
            "lat": 26.088221
        }
    },
    {
        "id": 8143714,
        "name": "Chayuan",
        "state": "",
        "country": "CN",
        "coord": {
            "lon": 119.315071,
            "lat": 26.11417
        }
    },
    {
        "id": 8143758,
        "name": "Wonocoyo Utara",
        "state": "",
        "country": "ID",
        "coord": {
            "lon": 111.453796,
            "lat": -8.2511
        }
    },
    {
        "id": 8143761,
        "name": "Nglebeng",
        "state": "",
        "country": "ID",
        "coord": {
            "lon": 111.454102,
            "lat": -8.2562
        }
    },
    {
        "id": 8143767,
        "name": "Krajan Ngrambingan",
        "state": "",
        "country": "ID",
        "coord": {
            "lon": 111.488899,
            "lat": -8.2595
        }
    },
    {
        "id": 8143791,
        "name": "Banjar",
        "state": "",
        "country": "ID",
        "coord": {
            "lon": 111.479897,
            "lat": -8.2676
        }
    },
    {
        "id": 8143817,
        "name": "Ngulung Wetan",
        "state": "",
        "country": "ID",
        "coord": {
            "lon": 111.486702,
            "lat": -8.2928
        }
    },
    {
        "id": 8144372,
        "name": "Kirlichnyy",
        "state": "",
        "country": "RU",
        "coord": {
            "lon": 39.835018,
            "lat": 47.252258
        }
    },
    {
        "id": 8144448,
        "name": "Bangil",
        "state": "",
        "country": "ID",
        "coord": {
            "lon": 111.395302,
            "lat": -8.1357
        }
    },
    {
        "id": 8144470,
        "name": "Sendang",
        "state": "",
        "country": "ID",
        "coord": {
            "lon": 111.439201,
            "lat": -8.144
        }
    },
    {
        "id": 8144495,
        "name": "Depok",
        "state": "",
        "country": "ID",
        "coord": {
            "lon": 111.442497,
            "lat": -8.1878
        }
    },
    {
        "id": 8144503,
        "name": "Sunduk",
        "state": "",
        "country": "ID",
        "coord": {
            "lon": 111.418198,
            "lat": -8.1879
        }
    },
    {
        "id": 8144526,
        "name": "Ketanggung",
        "state": "",
        "country": "ID",
        "coord": {
            "lon": 111.3815,
            "lat": -8.1953
        }
    },
    {
        "id": 8144567,
        "name": "Sukorejo",
        "state": "",
        "country": "ID",
        "coord": {
            "lon": 111.380302,
            "lat": -8.2471
        }
    },
    {
        "id": 8144580,
        "name": "Ngangkruk",
        "state": "",
        "country": "ID",
        "coord": {
            "lon": 111.411797,
            "lat": -8.2368
        }
    },
    {
        "id": 8144599,
        "name": "Gayam",
        "state": "",
        "country": "ID",
        "coord": {
            "lon": 111.451302,
            "lat": -8.2348
        }
    },
    {
        "id": 8144603,
        "name": "Kertosono",
        "state": "",
        "country": "ID",
        "coord": {
            "lon": 111.450401,
            "lat": -8.2183
        }
    },
    {
        "id": 8144628,
        "name": "Ngromo",
        "state": "",
        "country": "ID",
        "coord": {
            "lon": 111.418098,
            "lat": -8.2025
        }
    },
    {
        "id": 8144641,
        "name": "Karangtengah",
        "state": "",
        "country": "ID",
        "coord": {
            "lon": 111.427696,
            "lat": -8.2136
        }
    },
    {
        "id": 8144646,
        "name": "Puyung",
        "state": "",
        "country": "ID",
        "coord": {
            "lon": 111.495598,
            "lat": -8.1272
        }
    },
    {
        "id": 8144651,
        "name": "Sidomulyo",
        "state": "",
        "country": "ID",
        "coord": {
            "lon": 111.4813,
            "lat": -8.1346
        }
    },
    {
        "id": 8144702,
        "name": "Plalar",
        "state": "",
        "country": "ID",
        "coord": {
            "lon": 111.485298,
            "lat": -8.184
        }
    },
    {
        "id": 8144723,
        "name": "Banteng",
        "state": "",
        "country": "ID",
        "coord": {
            "lon": 111.482399,
            "lat": -8.2056
        }
    },
    {
        "id": 8144728,
        "name": "Sawahan",
        "state": "",
        "country": "ID",
        "coord": {
            "lon": 111.475197,
            "lat": -8.2133
        }
    },
    {
        "id": 8144757,
        "name": "Ngrencak",
        "state": "",
        "country": "ID",
        "coord": {
            "lon": 111.464104,
            "lat": -8.2384
        }
    },
    {
        "id": 8144768,
        "name": "Kebonagung",
        "state": "",
        "country": "ID",
        "coord": {
            "lon": 111.456703,
            "lat": -8.2355
        }
    },
    {
        "id": 8144775,
        "name": "Kebonsari",
        "state": "",
        "country": "ID",
        "coord": {
            "lon": 111.457802,
            "lat": -8.2151
        }
    },
    {
        "id": 8144784,
        "name": "Barang",
        "state": "",
        "country": "ID",
        "coord": {
            "lon": 111.466797,
            "lat": -8.2178
        }
    },
    {
        "id": 8145341,
        "name": "Vagiés",
        "state": "",
        "country": "GR",
        "coord": {
            "lon": 28.081079,
            "lat": 36.405811
        }
    },
    {
        "id": 8145527,
        "name": "Noabo",
        "state": "",
        "country": "CD",
        "coord": {
            "lon": 27.39897,
            "lat": 2.45988
        }
    },
    {
        "id": 8145969,
        "name": "Kara-Kulja",
        "state": "",
        "country": "KG",
        "coord": {
            "lon": 73.592491,
            "lat": 40.632229
        }
    },
    {
        "id": 8146308,
        "name": "Malinovka",
        "state": "",
        "country": "BY",
        "coord": {
            "lon": 27.9471,
            "lat": 53.236698
        }
    },
    {
        "id": 8146316,
        "name": "Bobovishchi",
        "state": "",
        "country": "BY",
        "coord": {
            "lon": 27.5818,
            "lat": 53.192299
        }
    },
    {
        "id": 8146819,
        "name": "Oserëdok",
        "state": "",
        "country": "BY",
        "coord": {
            "lon": 28.0051,
            "lat": 52.9977
        }
    },
    {
        "id": 8146894,
        "name": "Molotino",
        "state": "",
        "country": "BY",
        "coord": {
            "lon": 28.5937,
            "lat": 53.277199
        }
    },
    {
        "id": 8147026,
        "name": "Podzamsha",
        "state": "",
        "country": "BY",
        "coord": {
            "lon": 28.688999,
            "lat": 52.8806
        }
    },
    {
        "id": 8164011,
        "name": "Ban Sanam Bin Mai",
        "state": "",
        "country": "TH",
        "coord": {
            "lon": 99.25164,
            "lat": 16.90172
        }
    },
    {
        "id": 8170706,
        "name": "Gajahrejo Krajan",
        "state": "",
        "country": "ID",
        "coord": {
            "lon": 112.6493,
            "lat": -8.3413
        }
    },
    {
        "id": 8170715,
        "name": "Gedangan",
        "state": "",
        "country": "ID",
        "coord": {
            "lon": 112.651703,
            "lat": -8.2949
        }
    },
    {
        "id": 8170724,
        "name": "Sumbergesing Wetan",
        "state": "",
        "country": "ID",
        "coord": {
            "lon": 112.660202,
            "lat": -8.2986
        }
    },
    {
        "id": 8170728,
        "name": "Krajan Sidodadi",
        "state": "",
        "country": "ID",
        "coord": {
            "lon": 112.657997,
            "lat": -8.3702
        }
    },
    {
        "id": 8170733,
        "name": "Ringinsari Krajan",
        "state": "",
        "country": "ID",
        "coord": {
            "lon": 112.675499,
            "lat": -8.2773
        }
    },
    {
        "id": 8170749,
        "name": "Argotirto Krajan",
        "state": "",
        "country": "ID",
        "coord": {
            "lon": 112.6884,
            "lat": -8.2885
        }
    },
    {
        "id": 8170753,
        "name": "Sumbermanjing Krajan",
        "state": "",
        "country": "ID",
        "coord": {
            "lon": 112.685799,
            "lat": -8.2604
        }
    },
    {
        "id": 8170763,
        "name": "Kedungbanteng Krajan",
        "state": "",
        "country": "ID",
        "coord": {
            "lon": 112.713501,
            "lat": -8.3666
        }
    },
    {
        "id": 8170770,
        "name": "Krajan Harjokuncaran",
        "state": "",
        "country": "ID",
        "coord": {
            "lon": 112.703499,
            "lat": -8.2639
        }
    },
    {
        "id": 8170781,
        "name": "Ringin Kembar",
        "state": "",
        "country": "ID",
        "coord": {
            "lon": 112.727501,
            "lat": -8.2779
        }
    },
    {
        "id": 8170800,
        "name": "Donorejo",
        "state": "",
        "country": "ID",
        "coord": {
            "lon": 112.742104,
            "lat": -8.2808
        }
    },
    {
        "id": 8170804,
        "name": "Sidomulyo Kulon",
        "state": "",
        "country": "ID",
        "coord": {
            "lon": 112.743797,
            "lat": -8.3512
        }
    },
    {
        "id": 8174179,
        "name": "Voshchinichi",
        "state": "",
        "country": "BY",
        "coord": {
            "lon": 24.5639,
            "lat": 52.651299
        }
    },
    {
        "id": 8174561,
        "name": "Wirotaman",
        "state": "",
        "country": "ID",
        "coord": {
            "lon": 112.851402,
            "lat": -8.2529
        }
    },
    {
        "id": 8174563,
        "name": "Boncis",
        "state": "",
        "country": "ID",
        "coord": {
            "lon": 112.869797,
            "lat": -8.2635
        }
    },
    {
        "id": 8174578,
        "name": "Sekarbanyu",
        "state": "",
        "country": "ID",
        "coord": {
            "lon": 112.752502,
            "lat": -8.2633
        }
    },
    {
        "id": 8174593,
        "name": "Panggungsari",
        "state": "",
        "country": "ID",
        "coord": {
            "lon": 112.808197,
            "lat": -8.2682
        }
    },
    {
        "id": 8174598,
        "name": "Sumberarum",
        "state": "",
        "country": "ID",
        "coord": {
            "lon": 112.777199,
            "lat": -8.2671
        }
    },
    {
        "id": 8174627,
        "name": "Sumbersarikrajan",
        "state": "",
        "country": "ID",
        "coord": {
            "lon": 112.841003,
            "lat": -8.2995
        }
    },
    {
        "id": 8174638,
        "name": "Sawur Tengah",
        "state": "",
        "country": "ID",
        "coord": {
            "lon": 112.781898,
            "lat": -8.3015
        }
    },
    {
        "id": 8174647,
        "name": "Gampingan",
        "state": "",
        "country": "ID",
        "coord": {
            "lon": 112.847,
            "lat": -8.3078
        }
    },
    {
        "id": 8174678,
        "name": "Purwodadi Lor",
        "state": "",
        "country": "ID",
        "coord": {
            "lon": 112.8452,
            "lat": -8.3536
        }
    },
    {
        "id": 8178416,
        "name": "Rzhavets",
        "state": "",
        "country": "BY",
        "coord": {
            "lon": 31.0142,
            "lat": 52.537201
        }
    },
    {
        "id": 8180824,
        "name": "Kaliuling",
        "state": "",
        "country": "ID",
        "coord": {
            "lon": 112.951302,
            "lat": -8.267
        }
    },
    {
        "id": 8180829,
        "name": "Tempursari",
        "state": "",
        "country": "ID",
        "coord": {
            "lon": 112.979103,
            "lat": -8.2864
        }
    },
    {
        "id": 8180830,
        "name": "Krajan Pundungsari",
        "state": "",
        "country": "ID",
        "coord": {
            "lon": 112.973297,
            "lat": -8.2791
        }
    },
    {
        "id": 8180840,
        "name": "Krajan Tempursari",
        "state": "",
        "country": "ID",
        "coord": {
            "lon": 112.974098,
            "lat": -8.2915
        }
    },
    {
        "id": 8180843,
        "name": "Glagahan",
        "state": "",
        "country": "ID",
        "coord": {
            "lon": 112.952797,
            "lat": -8.2969
        }
    },
    {
        "id": 8180847,
        "name": "Krajan Satu B Lebakharjo",
        "state": "",
        "country": "ID",
        "coord": {
            "lon": 112.903297,
            "lat": -8.3016
        }
    },
    {
        "id": 8180853,
        "name": "Purorejo",
        "state": "",
        "country": "ID",
        "coord": {
            "lon": 112.947304,
            "lat": -8.3041
        }
    },
    {
        "id": 8180858,
        "name": "Umbulsari",
        "state": "",
        "country": "ID",
        "coord": {
            "lon": 112.950302,
            "lat": -8.3075
        }
    },
    {
        "id": 8180863,
        "name": "Tegalrejo",
        "state": "",
        "country": "ID",
        "coord": {
            "lon": 112.951302,
            "lat": -8.3294
        }
    },
    {
        "id": 8180911,
        "name": "Sumberwongso",
        "state": "",
        "country": "ID",
        "coord": {
            "lon": 113.224701,
            "lat": -8.2616
        }
    },
    {
        "id": 8180923,
        "name": "Sidomulyo",
        "state": "",
        "country": "ID",
        "coord": {
            "lon": 113.270599,
            "lat": -8.2588
        }
    },
    {
        "id": 8180924,
        "name": "Wotgalih",
        "state": "",
        "country": "ID",
        "coord": {
            "lon": 113.279297,
            "lat": -8.27
        }
    },
    {
        "id": 8180927,
        "name": "Tanjungrejo Lor",
        "state": "",
        "country": "ID",
        "coord": {
            "lon": 113.307404,
            "lat": -8.2661
        }
    },
    {
        "id": 8180931,
        "name": "Krajan Dua Keting",
        "state": "",
        "country": "ID",
        "coord": {
            "lon": 113.326698,
            "lat": -8.2625
        }
    },
    {
        "id": 8180933,
        "name": "Igir-igir",
        "state": "",
        "country": "ID",
        "coord": {
            "lon": 113.336098,
            "lat": -8.2834
        }
    },
    {
        "id": 8180936,
        "name": "Sidomulyo",
        "state": "",
        "country": "ID",
        "coord": {
            "lon": 113.331703,
            "lat": -8.3105
        }
    },
    {
        "id": 8180942,
        "name": "Kraton",
        "state": "",
        "country": "ID",
        "coord": {
            "lon": 113.3489,
            "lat": -8.2997
        }
    },
    {
        "id": 8180957,
        "name": "Kepanjen",
        "state": "",
        "country": "ID",
        "coord": {
            "lon": 113.372803,
            "lat": -8.3436
        }
    },
    {
        "id": 8181648,
        "name": "Bern / Wankdorf",
        "state": "",
        "country": "CH",
        "coord": {
            "lon": 7.46813,
            "lat": 46.966141
        }
    },
    {
        "id": 8181708,
        "name": "Hakai",
        "state": "",
        "country": "CA",
        "coord": {
            "lon": -128.131256,
            "lat": 51.65448
        }
    },
    {
        "id": 8181718,
        "name": "Viimsi",
        "state": "",
        "country": "EE",
        "coord": {
            "lon": 24.862539,
            "lat": 59.500858
        }
    },
    {
        "id": 8181809,
        "name": "Bung Khla",
        "state": "",
        "country": "TH",
        "coord": {
            "lon": 103.974182,
            "lat": 18.30232
        }
    },
    {
        "id": 8181847,
        "name": "Al Bāshūrah",
        "state": "",
        "country": "SY",
        "coord": {
            "lon": 36.75108,
            "lat": 35.132679
        }
    },
    {
        "id": 8181926,
        "name": "Bustān Ghanūm",
        "state": "",
        "country": "SY",
        "coord": {
            "lon": 36.630249,
            "lat": 35.929581
        }
    },
    {
        "id": 8181956,
        "name": "Ban Nam Man Tai",
        "state": "",
        "country": "TH",
        "coord": {
            "lon": 100.303612,
            "lat": 17.75808
        }
    },
    {
        "id": 8182072,
        "name": "Estanzuela",
        "state": "",
        "country": "CO",
        "coord": {
            "lon": -74.085861,
            "lat": 4.60066
        }
    },
    {
        "id": 8182090,
        "name": "Ciudad Montes",
        "state": "",
        "country": "CO",
        "coord": {
            "lon": -74.115372,
            "lat": 4.60393
        }
    },
    {
        "id": 8182938,
        "name": "Pyatralyevichy 2",
        "state": "",
        "country": "BY",
        "coord": {
            "lon": 25.3668,
            "lat": 53.111198
        }
    },
    {
        "id": 8183145,
        "name": "Chyzhevichy",
        "state": "",
        "country": "BY",
        "coord": {
            "lon": 27.5383,
            "lat": 52.809101
        }
    },
    {
        "id": 8183551,
        "name": "Krajan Tengah",
        "state": "",
        "country": "ID",
        "coord": {
            "lon": 111.379601,
            "lat": -8.0163
        }
    },
    {
        "id": 8183566,
        "name": "Krajan Tugurejo",
        "state": "",
        "country": "ID",
        "coord": {
            "lon": 111.389297,
            "lat": -8.0361
        }
    },
    {
        "id": 8183572,
        "name": "Broto",
        "state": "",
        "country": "ID",
        "coord": {
            "lon": 111.410004,
            "lat": -8.021
        }
    },
    {
        "id": 8183576,
        "name": "Melikan",
        "state": "",
        "country": "ID",
        "coord": {
            "lon": 111.414101,
            "lat": -8.0065
        }
    },
    {
        "id": 8183577,
        "name": "Banggel",
        "state": "",
        "country": "ID",
        "coord": {
            "lon": 111.421997,
            "lat": -8.0014
        }
    },
    {
        "id": 8183579,
        "name": "Maron",
        "state": "",
        "country": "ID",
        "coord": {
            "lon": 111.4216,
            "lat": -8.0059
        }
    },
    {
        "id": 8183584,
        "name": "Krajan Menggare",
        "state": "",
        "country": "ID",
        "coord": {
            "lon": 111.416603,
            "lat": -8.0138
        }
    },
    {
        "id": 8183587,
        "name": "Dawang",
        "state": "",
        "country": "ID",
        "coord": {
            "lon": 111.414497,
            "lat": -8.0353
        }
    },
    {
        "id": 8183593,
        "name": "Krajan Caluk",
        "state": "",
        "country": "ID",
        "coord": {
            "lon": 111.397499,
            "lat": -8.0381
        }
    },
    {
        "id": 8183595,
        "name": "Krajan Senepo",
        "state": "",
        "country": "ID",
        "coord": {
            "lon": 111.393402,
            "lat": -8.0435
        }
    },
    {
        "id": 8183623,
        "name": "Klatakan",
        "state": "",
        "country": "ID",
        "coord": {
            "lon": 111.461899,
            "lat": -8.0069
        }
    },
    {
        "id": 8183625,
        "name": "Kudo",
        "state": "",
        "country": "ID",
        "coord": {
            "lon": 111.452599,
            "lat": -8.0058
        }
    },
    {
        "id": 8183630,
        "name": "Gabahan",
        "state": "",
        "country": "ID",
        "coord": {
            "lon": 111.452499,
            "lat": -8.0186
        }
    },
    {
        "id": 8183632,
        "name": "Beluk",
        "state": "",
        "country": "ID",
        "coord": {
            "lon": 111.446503,
            "lat": -8.0041
        }
    },
    {
        "id": 8183634,
        "name": "Nambak Tengah",
        "state": "",
        "country": "ID",
        "coord": {
            "lon": 111.446198,
            "lat": -8.009
        }
    },
    {
        "id": 8183640,
        "name": "Bugis",
        "state": "",
        "country": "ID",
        "coord": {
            "lon": 111.444099,
            "lat": -8.0198
        }
    },
    {
        "id": 8183645,
        "name": "Tiron",
        "state": "",
        "country": "ID",
        "coord": {
            "lon": 111.453697,
            "lat": -8.03
        }
    },
    {
        "id": 8183651,
        "name": "Munung",
        "state": "",
        "country": "ID",
        "coord": {
            "lon": 111.4627,
            "lat": -8.0294
        }
    },
    {
        "id": 8183662,
        "name": "Setono",
        "state": "",
        "country": "ID",
        "coord": {
            "lon": 111.432098,
            "lat": -8.0083
        }
    },
    {
        "id": 8183690,
        "name": "Krajan Mrayan",
        "state": "",
        "country": "ID",
        "coord": {
            "lon": 111.385101,
            "lat": -8.0846
        }
    },
    {
        "id": 8183696,
        "name": "Ngembel",
        "state": "",
        "country": "ID",
        "coord": {
            "lon": 111.414597,
            "lat": -8.0894
        }
    },
    {
        "id": 8183733,
        "name": "Krajan Selur",
        "state": "",
        "country": "ID",
        "coord": {
            "lon": 111.469902,
            "lat": -8.0942
        }
    },
    {
        "id": 8183752,
        "name": "Nglorogan",
        "state": "",
        "country": "ID",
        "coord": {
            "lon": 111.462601,
            "lat": -8.0935
        }
    },
    {
        "id": 8184439,
        "name": "Vierlanden",
        "state": "",
        "country": "ZA",
        "coord": {
            "lon": 18.65727,
            "lat": -33.81229
        }
    },
    {
        "id": 8184847,
        "name": "La Consolata",
        "state": "",
        "country": "CO",
        "coord": {
            "lon": -75.61644,
            "lat": 1.62133
        }
    },
    {
        "id": 8185014,
        "name": "Gununglincingkrajan",
        "state": "",
        "country": "ID",
        "coord": {
            "lon": 113.430199,
            "lat": -8.2558
        }
    },
    {
        "id": 8185021,
        "name": "Karangduren Dua",
        "state": "",
        "country": "ID",
        "coord": {
            "lon": 113.493896,
            "lat": -8.2717
        }
    },
    {
        "id": 8185032,
        "name": "Kebonsari",
        "state": "",
        "country": "ID",
        "coord": {
            "lon": 113.447701,
            "lat": -8.2641
        }
    },
    {
        "id": 8185039,
        "name": "Kebonsari Kidul",
        "state": "",
        "country": "ID",
        "coord": {
            "lon": 113.451797,
            "lat": -8.2766
        }
    },
    {
        "id": 8185042,
        "name": "Rejosarikrajan",
        "state": "",
        "country": "ID",
        "coord": {
            "lon": 113.428802,
            "lat": -8.2796
        }
    },
    {
        "id": 8185043,
        "name": "Kesambilerenkrajan",
        "state": "",
        "country": "ID",
        "coord": {
            "lon": 113.407303,
            "lat": -8.2794
        }
    },
    {
        "id": 8185049,
        "name": "Grendenkrajan Satu",
        "state": "",
        "country": "ID",
        "coord": {
            "lon": 113.472801,
            "lat": -8.3344
        }
    },
    {
        "id": 8185050,
        "name": "Krebetkrajan",
        "state": "",
        "country": "ID",
        "coord": {
            "lon": 113.396698,
            "lat": -8.2967
        }
    },
    {
        "id": 8185057,
        "name": "Wringintelu",
        "state": "",
        "country": "ID",
        "coord": {
            "lon": 113.477699,
            "lat": -8.2875
        }
    },
    {
        "id": 8185059,
        "name": "Kedungsumurkrajan",
        "state": "",
        "country": "ID",
        "coord": {
            "lon": 113.487396,
            "lat": -8.2867
        }
    },
    {
        "id": 8185063,
        "name": "Krajan A Wonorejo",
        "state": "",
        "country": "ID",
        "coord": {
            "lon": 113.381897,
            "lat": -8.2864
        }
    },
    {
        "id": 8185064,
        "name": "Krajan C Wonorejo",
        "state": "",
        "country": "ID",
        "coord": {
            "lon": 113.3862,
            "lat": -8.2901
        }
    },
    {
        "id": 8185067,
        "name": "Purwoharjokrajan Satu",
        "state": "",
        "country": "ID",
        "coord": {
            "lon": 113.482597,
            "lat": -8.3166
        }
    },
    {
        "id": 8185069,
        "name": "Krajan Timur Mlokorejo",
        "state": "",
        "country": "ID",
        "coord": {
            "lon": 113.458603,
            "lat": -8.3081
        }
    },
    {
        "id": 8185073,
        "name": "Ampeldentokrajan",
        "state": "",
        "country": "ID",
        "coord": {
            "lon": 113.433701,
            "lat": -8.308
        }
    },
    {
        "id": 8185077,
        "name": "Kebonan",
        "state": "",
        "country": "ID",
        "coord": {
            "lon": 113.407898,
            "lat": -8.3122
        }
    },
    {
        "id": 8185084,
        "name": "Munengkrajan",
        "state": "",
        "country": "ID",
        "coord": {
            "lon": 113.384201,
            "lat": -8.3365
        }
    },
    {
        "id": 8185090,
        "name": "Mojomulyokrajan",
        "state": "",
        "country": "ID",
        "coord": {
            "lon": 113.429604,
            "lat": -8.3445
        }
    },
    {
        "id": 8185094,
        "name": "Mojosarikrajan",
        "state": "",
        "country": "ID",
        "coord": {
            "lon": 113.446602,
            "lat": -8.3553
        }
    },
    {
        "id": 8185102,
        "name": "Krajan Puger Wetan",
        "state": "",
        "country": "ID",
        "coord": {
            "lon": 113.479103,
            "lat": -8.3728
        }
    },
    {
        "id": 8185104,
        "name": "Kauman",
        "state": "",
        "country": "ID",
        "coord": {
            "lon": 113.475899,
            "lat": -8.3722
        }
    },
    {
        "id": 8185137,
        "name": "Menampukrajan",
        "state": "",
        "country": "ID",
        "coord": {
            "lon": 113.414497,
            "lat": -8.3307
        }
    },
    {
        "id": 8185272,
        "name": "Krajan Lor Gumelar",
        "state": "",
        "country": "ID",
        "coord": {
            "lon": 113.551498,
            "lat": -8.2546
        }
    },
    {
        "id": 8185303,
        "name": "Sumberejo",
        "state": "",
        "country": "ID",
        "coord": {
            "lon": 113.592003,
            "lat": -8.397
        }
    },
    {
        "id": 8185368,
        "name": "Gunungsari",
        "state": "",
        "country": "ID",
        "coord": {
            "lon": 113.565598,
            "lat": -8.2622
        }
    },
    {
        "id": 8185374,
        "name": "Lohong",
        "state": "",
        "country": "ID",
        "coord": {
            "lon": 113.505501,
            "lat": -8.2714
        }
    },
    {
        "id": 8185385,
        "name": "Glundengankrajan",
        "state": "",
        "country": "ID",
        "coord": {
            "lon": 113.556702,
            "lat": -8.281
        }
    },
    {
        "id": 8185389,
        "name": "Tutul",
        "state": "",
        "country": "ID",
        "coord": {
            "lon": 113.5196,
            "lat": -8.2836
        }
    },
    {
        "id": 8185393,
        "name": "Krajan Lor Balung Kulon",
        "state": "",
        "country": "ID",
        "coord": {
            "lon": 113.529297,
            "lat": -8.2897
        }
    },
    {
        "id": 8185394,
        "name": "Balungkopi",
        "state": "",
        "country": "ID",
        "coord": {
            "lon": 113.542099,
            "lat": -8.2902
        }
    },
    {
        "id": 8185403,
        "name": "Kemuning",
        "state": "",
        "country": "ID",
        "coord": {
            "lon": 113.622704,
            "lat": -8.2919
        }
    },
    {
        "id": 8185412,
        "name": "Darungan",
        "state": "",
        "country": "ID",
        "coord": {
            "lon": 113.507599,
            "lat": -8.2987
        }
    },
    {
        "id": 8185421,
        "name": "Krajan Kertonegoro",
        "state": "",
        "country": "ID",
        "coord": {
            "lon": 113.615402,
            "lat": -8.3082
        }
    },
    {
        "id": 8185429,
        "name": "Penitik",
        "state": "",
        "country": "ID",
        "coord": {
            "lon": 113.503502,
            "lat": -8.3252
        }
    },
    {
        "id": 8185431,
        "name": "Kebonsari",
        "state": "",
        "country": "ID",
        "coord": {
            "lon": 113.526604,
            "lat": -8.3187
        }
    },
    {
        "id": 8185436,
        "name": "Karanganyarkrajan",
        "state": "",
        "country": "ID",
        "coord": {
            "lon": 113.612297,
            "lat": -8.3208
        }
    },
    {
        "id": 8185447,
        "name": "Krajan Wetan Tanjungrejo",
        "state": "",
        "country": "ID",
        "coord": {
            "lon": 113.567802,
            "lat": -8.3439
        }
    },
    {
        "id": 8185452,
        "name": "Sumberan",
        "state": "",
        "country": "ID",
        "coord": {
            "lon": 113.606003,
            "lat": -8.3426
        }
    },
    {
        "id": 8185455,
        "name": "Kesilirkrajan",
        "state": "",
        "country": "ID",
        "coord": {
            "lon": 113.582497,
            "lat": -8.3436
        }
    },
    {
        "id": 8185463,
        "name": "Bonsari",
        "state": "",
        "country": "ID",
        "coord": {
            "lon": 113.6036,
            "lat": -8.3729
        }
    },
    {
        "id": 8185492,
        "name": "Sambiringkik",
        "state": "",
        "country": "ID",
        "coord": {
            "lon": 113.537598,
            "lat": -8.3558
        }
    },
    {
        "id": 8190773,
        "name": "Dukuhsia",
        "state": "",
        "country": "ID",
        "coord": {
            "lon": 113.618301,
            "lat": -8.1953
        }
    },
    {
        "id": 8190799,
        "name": "Curahlele Wetan",
        "state": "",
        "country": "ID",
        "coord": {
            "lon": 113.546402,
            "lat": -8.2452
        }
    },
    {
        "id": 8190832,
        "name": "Gludug",
        "state": "",
        "country": "ID",
        "coord": {
            "lon": 113.597397,
            "lat": -8.1394
        }
    },
    {
        "id": 8190875,
        "name": "Dukuh Dua",
        "state": "",
        "country": "ID",
        "coord": {
            "lon": 113.560898,
            "lat": -8.1645
        }
    },
    {
        "id": 8190881,
        "name": "Andongsari",
        "state": "",
        "country": "ID",
        "coord": {
            "lon": 113.550499,
            "lat": -8.1697
        }
    },
    {
        "id": 8190883,
        "name": "Kemuningsari",
        "state": "",
        "country": "ID",
        "coord": {
            "lon": 113.603104,
            "lat": -8.1741
        }
    },
    {
        "id": 8190921,
        "name": "Gugut",
        "state": "",
        "country": "ID",
        "coord": {
            "lon": 113.612099,
            "lat": -8.1838
        }
    },
    {
        "id": 8190949,
        "name": "Bangsalsari",
        "state": "",
        "country": "ID",
        "coord": {
            "lon": 113.534599,
            "lat": -8.2029
        }
    },
    {
        "id": 8190951,
        "name": "Langkap",
        "state": "",
        "country": "ID",
        "coord": {
            "lon": 113.556,
            "lat": -8.2028
        }
    },
    {
        "id": 8190952,
        "name": "Jetis",
        "state": "",
        "country": "ID",
        "coord": {
            "lon": 113.564796,
            "lat": -8.201
        }
    },
    {
        "id": 8190981,
        "name": "Pecoro",
        "state": "",
        "country": "ID",
        "coord": {
            "lon": 113.591103,
            "lat": -8.2089
        }
    },
    {
        "id": 8190990,
        "name": "Sukorejo",
        "state": "",
        "country": "ID",
        "coord": {
            "lon": 113.529099,
            "lat": -8.2227
        }
    },
    {
        "id": 8191020,
        "name": "Bedadung Kulon",
        "state": "",
        "country": "ID",
        "coord": {
            "lon": 113.607498,
            "lat": -8.2198
        }
    },
    {
        "id": 8191025,
        "name": "Rowotamtu",
        "state": "",
        "country": "ID",
        "coord": {
            "lon": 113.580803,
            "lat": -8.2315
        }
    },
    {
        "id": 8191031,
        "name": "Gumawang",
        "state": "",
        "country": "ID",
        "coord": {
            "lon": 113.569298,
            "lat": -8.2398
        }
    },
    {
        "id": 8195479,
        "name": "Kraton",
        "state": "",
        "country": "ID",
        "coord": {
            "lon": 113.677299,
            "lat": -8.3849
        }
    },
    {
        "id": 8195483,
        "name": "Andongrejo",
        "state": "",
        "country": "ID",
        "coord": {
            "lon": 113.740601,
            "lat": -8.4068
        }
    },
    {
        "id": 8197161,
        "name": "Kandangan",
        "state": "",
        "country": "ID",
        "coord": {
            "lon": 113.970901,
            "lat": -8.5415
        }
    },
    {
        "id": 8197207,
        "name": "Rejoagung",
        "state": "",
        "country": "ID",
        "coord": {
            "lon": 114.060303,
            "lat": -8.5618
        }
    },
    {
        "id": 8197220,
        "name": "Sidorukun",
        "state": "",
        "country": "ID",
        "coord": {
            "lon": 114.118896,
            "lat": -8.5898
        }
    },
    {
        "id": 8197226,
        "name": "Sumberbening",
        "state": "",
        "country": "ID",
        "coord": {
            "lon": 114.110298,
            "lat": -8.5394
        }
    },
    {
        "id": 8197230,
        "name": "Sukorejo",
        "state": "",
        "country": "ID",
        "coord": {
            "lon": 114.1138,
            "lat": -8.5052
        }
    },
    {
        "id": 8197234,
        "name": "Mulyosari",
        "state": "",
        "country": "ID",
        "coord": {
            "lon": 114.090401,
            "lat": -8.5596
        }
    },
    {
        "id": 8197383,
        "name": "Bungatira",
        "state": "",
        "country": "UG",
        "coord": {
            "lon": 32.287811,
            "lat": 2.83018
        }
    },
    {
        "id": 8198423,
        "name": "Cirkulane",
        "state": "",
        "country": "SI",
        "coord": {
            "lon": 15.99517,
            "lat": 46.345291
        }
    },
    {
        "id": 8198424,
        "name": "Smarjeske Toplice",
        "state": "",
        "country": "SI",
        "coord": {
            "lon": 15.22308,
            "lat": 45.861961
        }
    },
    {
        "id": 8198686,
        "name": "Christiansø",
        "state": "",
        "country": "DK",
        "coord": {
            "lon": 15.18662,
            "lat": 55.320061
        }
    },
    {
        "id": 8198696,
        "name": "Les Franqueses del Vallès",
        "state": "",
        "country": "ES",
        "coord": {
            "lon": 2.29829,
            "lat": 41.619289
        }
    },
    {
        "id": 8198709,
        "name": "Buzen",
        "state": "",
        "country": "JP",
        "coord": {
            "lon": 131.13002,
            "lat": 33.61153
        }
    },
    {
        "id": 8198710,
        "name": "Yoshitomi",
        "state": "",
        "country": "JP",
        "coord": {
            "lon": 131.175995,
            "lat": 33.60247
        }
    },
    {
        "id": 8198720,
        "name": "San Tirso de Abres",
        "state": "",
        "country": "ES",
        "coord": {
            "lon": -7.14317,
            "lat": 43.40873
        }
    },
    {
        "id": 8198730,
        "name": "Giez",
        "state": "",
        "country": "CH",
        "coord": {
            "lon": 6.61712,
            "lat": 46.81604
        }
    },
    {
        "id": 8199019,
        "name": "Habay",
        "state": "",
        "country": "BE",
        "coord": {
            "lon": 5.61676,
            "lat": 49.730141
        }
    },
    {
        "id": 8199069,
        "name": "Santa Mustiola",
        "state": "",
        "country": "SM",
        "coord": {
            "lon": 12.43858,
            "lat": 43.93388
        }
    },
    {
        "id": 8199102,
        "name": "kankrabari Dovan",
        "state": "",
        "country": "NP",
        "coord": {
            "lon": 85.459343,
            "lat": 27.628811
        }
    },
    {
        "id": 8199371,
        "name": "Rambagh",
        "state": "",
        "country": "IN",
        "coord": {
            "lon": 75.808319,
            "lat": 26.90266
        }
    },
    {
        "id": 8199378,
        "name": "Modiin Ilit",
        "state": "",
        "country": "IL",
        "coord": {
            "lon": 35.044159,
            "lat": 31.932211
        }
    },
    {
        "id": 8199379,
        "name": "Nof Ayalon",
        "state": "",
        "country": "IL",
        "coord": {
            "lon": 34.99081,
            "lat": 31.871111
        }
    },
    {
        "id": 8199382,
        "name": "Hashmonaim",
        "state": "",
        "country": "IL",
        "coord": {
            "lon": 35.0215,
            "lat": 31.929729
        }
    },
    {
        "id": 8199383,
        "name": "Lapid",
        "state": "",
        "country": "IL",
        "coord": {
            "lon": 35.032219,
            "lat": 31.917641
        }
    },
    {
        "id": 8199384,
        "name": "Kfar NaOranim",
        "state": "",
        "country": "IL",
        "coord": {
            "lon": 35.03669,
            "lat": 31.919821
        }
    },
    {
        "id": 8199385,
        "name": "Mevo horon",
        "state": "",
        "country": "IL",
        "coord": {
            "lon": 35.035831,
            "lat": 31.848761
        }
    },
    {
        "id": 8199386,
        "name": "Givat Zeev",
        "state": "",
        "country": "IL",
        "coord": {
            "lon": 35.16861,
            "lat": 31.86145
        }
    },
    {
        "id": 8199387,
        "name": "Beit Horon",
        "state": "",
        "country": "IL",
        "coord": {
            "lon": 35.12999,
            "lat": 31.875811
        }
    },
    {
        "id": 8199389,
        "name": "Na'ale",
        "state": "",
        "country": "IL",
        "coord": {
            "lon": 35.065529,
            "lat": 31.96236
        }
    },
    {
        "id": 8199390,
        "name": "Giv'on HaHadasha",
        "state": "",
        "country": "IL",
        "coord": {
            "lon": 35.16106,
            "lat": 31.84927
        }
    },
    {
        "id": 8199392,
        "name": "Talmon",
        "state": "",
        "country": "IL",
        "coord": {
            "lon": 35.135391,
            "lat": 31.93927
        }
    },
    {
        "id": 8199393,
        "name": "Dolev",
        "state": "",
        "country": "IL",
        "coord": {
            "lon": 35.13393,
            "lat": 31.92609
        }
    },
    {
        "id": 8199394,
        "name": "Ariel",
        "state": "",
        "country": "IL",
        "coord": {
            "lon": 35.18449,
            "lat": 32.106499
        }
    },
    {
        "id": 8199396,
        "name": "Santa Lucia",
        "state": "",
        "country": "IT",
        "coord": {
            "lon": 14.07937,
            "lat": 41.304089
        }
    },
    {
        "id": 8199398,
        "name": "Grottola",
        "state": "",
        "country": "IT",
        "coord": {
            "lon": 14.04121,
            "lat": 41.317081
        }
    },
    {
        "id": 8199399,
        "name": "Torchiati",
        "state": "",
        "country": "IT",
        "coord": {
            "lon": 14.80622,
            "lat": 40.82011
        }
    },
    {
        "id": 8199410,
        "name": "Castelletto",
        "state": "",
        "country": "IT",
        "coord": {
            "lon": 11.06478,
            "lat": 44.440151
        }
    },
    {
        "id": 8199411,
        "name": "Praticello di Gattatico",
        "state": "",
        "country": "IT",
        "coord": {
            "lon": 10.47461,
            "lat": 44.804859
        }
    },
    {
        "id": 8199412,
        "name": "Casale di Mezzani",
        "state": "",
        "country": "IT",
        "coord": {
            "lon": 10.43015,
            "lat": 44.91534
        }
    },
    {
        "id": 8199413,
        "name": "Calderino",
        "state": "",
        "country": "IT",
        "coord": {
            "lon": 11.19927,
            "lat": 44.457741
        }
    },
    {
        "id": 8199414,
        "name": "San Polo",
        "state": "",
        "country": "IT",
        "coord": {
            "lon": 10.35685,
            "lat": 44.889568
        }
    },
    {
        "id": 8199415,
        "name": "Santo Stefano",
        "state": "",
        "country": "IT",
        "coord": {
            "lon": 13.12626,
            "lat": 46.208649
        }
    },
    {
        "id": 8199416,
        "name": "Cras",
        "state": "",
        "country": "IT",
        "coord": {
            "lon": 13.62266,
            "lat": 46.173752
        }
    },
    {
        "id": 8199417,
        "name": "Vico",
        "state": "",
        "country": "IT",
        "coord": {
            "lon": 12.58398,
            "lat": 46.424191
        }
    },
    {
        "id": 8199420,
        "name": "Oranit",
        "state": "",
        "country": "IL",
        "coord": {
            "lon": 34.99094,
            "lat": 32.131649
        }
    },
    {
        "id": 8199421,
        "name": "Nirit",
        "state": "",
        "country": "IL",
        "coord": {
            "lon": 34.986221,
            "lat": 32.14677
        }
    },
    {
        "id": 8199422,
        "name": "Revava",
        "state": "",
        "country": "IL",
        "coord": {
            "lon": 35.12896,
            "lat": 32.119259
        }
    },
    {
        "id": 8199556,
        "name": "Artist Village",
        "state": "",
        "country": "IN",
        "coord": {
            "lon": 73.042763,
            "lat": 19.03227
        }
    },
    {
        "id": 8199578,
        "name": "El Castillo",
        "state": "",
        "country": "MX",
        "coord": {
            "lon": -100.492973,
            "lat": 20.580721
        }
    },
    {
        "id": 8199693,
        "name": "Caseo",
        "state": "",
        "country": "IT",
        "coord": {
            "lon": 9.27504,
            "lat": 44.943691
        }
    },
    {
        "id": 8199694,
        "name": "Tagliuno",
        "state": "",
        "country": "IT",
        "coord": {
            "lon": 9.90864,
            "lat": 45.642551
        }
    },
    {
        "id": 8199695,
        "name": "Terraverde-Corte Palasio",
        "state": "",
        "country": "IT",
        "coord": {
            "lon": 9.56162,
            "lat": 45.315521
        }
    },
    {
        "id": 8199696,
        "name": "Villa Fornace",
        "state": "",
        "country": "IT",
        "coord": {
            "lon": 9.25512,
            "lat": 44.969528
        }
    },
    {
        "id": 8200099,
        "name": "Huyen Yen Lap",
        "state": "",
        "country": "VN",
        "coord": {
            "lon": 105.060143,
            "lat": 21.350019
        }
    },
    {
        "id": 8200205,
        "name": "Huyen Thanh Hoa",
        "state": "",
        "country": "VN",
        "coord": {
            "lon": 105.145348,
            "lat": 21.495831
        }
    },
    {
        "id": 8200212,
        "name": "Huyen Song Thao",
        "state": "",
        "country": "VN",
        "coord": {
            "lon": 105.139473,
            "lat": 21.420799
        }
    },
    {
        "id": 8200697,
        "name": "Asklipieío",
        "state": "",
        "country": "GR",
        "coord": {
            "lon": 23.02878,
            "lat": 37.587639
        }
    },
    {
        "id": 8200783,
        "name": "Huyen Tam Thanh",
        "state": "",
        "country": "VN",
        "coord": {
            "lon": 105.297752,
            "lat": 21.25564
        }
    },
    {
        "id": 8200836,
        "name": "Huyen Phong Chau",
        "state": "",
        "country": "VN",
        "coord": {
            "lon": 105.293137,
            "lat": 21.43498
        }
    },
    {
        "id": 8201616,
        "name": "Huyen Ba Vi",
        "state": "",
        "country": "VN",
        "coord": {
            "lon": 105.430183,
            "lat": 21.1999
        }
    },
    {
        "id": 8201761,
        "name": "Sicong",
        "state": "",
        "country": "CN",
        "coord": {
            "lon": 113.543808,
            "lat": 26.813709
        }
    },
    {
        "id": 8201774,
        "name": "Mijiang",
        "state": "",
        "country": "CN",
        "coord": {
            "lon": 113.555519,
            "lat": 26.792191
        }
    },
    {
        "id": 8201775,
        "name": "Xiadong",
        "state": "",
        "country": "CN",
        "coord": {
            "lon": 113.531219,
            "lat": 26.774191
        }
    },
    {
        "id": 8201845,
        "name": "Gérakas",
        "state": "",
        "country": "GR",
        "coord": {
            "lon": 23.857599,
            "lat": 38.02277
        }
    },
    {
        "id": 8202413,
        "name": "Megálo Chorió",
        "state": "",
        "country": "GR",
        "coord": {
            "lon": 26.966129,
            "lat": 37.458939
        }
    },
    {
        "id": 8217253,
        "name": "Mehron",
        "state": "",
        "country": "TJ",
        "coord": {
            "lon": 69.286774,
            "lat": 39.416908
        }
    },
    {
        "id": 8219813,
        "name": "Taylors Beach",
        "state": "",
        "country": "AU",
        "coord": {
            "lon": 146.324478,
            "lat": -18.632681
        }
    },
    {
        "id": 8222846,
        "name": "Solnechnaya",
        "state": "",
        "country": "RU",
        "coord": {
            "lon": 131.732803,
            "lat": 49.237499
        }
    },
    {
        "id": 8223131,
        "name": "Bahori",
        "state": "",
        "country": "TJ",
        "coord": {
            "lon": 67.994263,
            "lat": 37.394791
        }
    },
    {
        "id": 8223932,
        "name": "Central",
        "state": "",
        "country": "HK",
        "coord": {
            "lon": 114.158463,
            "lat": 22.28299
        }
    },
    {
        "id": 8223953,
        "name": "Santiago de Alcántara",
        "state": "",
        "country": "ES",
        "coord": {
            "lon": -7.24402,
            "lat": 39.606609
        }
    },
    {
        "id": 8223990,
        "name": "Kolonaki",
        "state": "",
        "country": "GR",
        "coord": {
            "lon": 23.74103,
            "lat": 37.978661
        }
    },
    {
        "id": 8224003,
        "name": "Miola di Pinè",
        "state": "",
        "country": "IT",
        "coord": {
            "lon": 11.2485,
            "lat": 46.126678
        }
    },
    {
        "id": 8224082,
        "name": "Silvi Marina",
        "state": "",
        "country": "IT",
        "coord": {
            "lon": 14.12078,
            "lat": 42.54884
        }
    },
    {
        "id": 8224089,
        "name": "Cancello ed Arnone",
        "state": "",
        "country": "IT",
        "coord": {
            "lon": 14.02714,
            "lat": 41.073009
        }
    },
    {
        "id": 8224092,
        "name": "Bellaria-Igea Marina",
        "state": "",
        "country": "IT",
        "coord": {
            "lon": 12.47,
            "lat": 44.14212
        }
    },
    {
        "id": 8224207,
        "name": "Appleby-in-Westmorland",
        "state": "",
        "country": "GB",
        "coord": {
            "lon": -2.48978,
            "lat": 54.577042
        }
    },
    {
        "id": 8224454,
        "name": "Novyi Svit",
        "state": "",
        "country": "UA",
        "coord": {
            "lon": 34.91301,
            "lat": 44.82988
        }
    },
    {
        "id": 8224455,
        "name": "Saint-Antoine-de-Tilly",
        "state": "",
        "country": "CA",
        "coord": {
            "lon": -71.573349,
            "lat": 46.66346
        }
    },
    {
        "id": 8224624,
        "name": "City of Balikpapan",
        "state": "",
        "country": "ID",
        "coord": {
            "lon": 116.894188,
            "lat": -1.24204
        }
    },
    {
        "id": 8224628,
        "name": "Amirabad",
        "state": "",
        "country": "PK",
        "coord": {
            "lon": 73.090782,
            "lat": 34.18729
        }
    },
    {
        "id": 8224698,
        "name": "Ca' Savio",
        "state": "",
        "country": "IT",
        "coord": {
            "lon": 12.45729,
            "lat": 45.453751
        }
    },
    {
        "id": 8224780,
        "name": "Cradley Heath",
        "state": "",
        "country": "GB",
        "coord": {
            "lon": -2.08212,
            "lat": 52.472141
        }
    },
    {
        "id": 8224782,
        "name": "Shirley",
        "state": "",
        "country": "GB",
        "coord": {
            "lon": -1.81952,
            "lat": 52.41074
        }
    },
    {
        "id": 8224783,
        "name": "Stanley",
        "state": "",
        "country": "GB",
        "coord": {
            "lon": -1.69846,
            "lat": 54.867962
        }
    },
    {
        "id": 8224784,
        "name": "Stockton Heath",
        "state": "",
        "country": "GB",
        "coord": {
            "lon": -2.57406,
            "lat": 53.370838
        }
    },
    {
        "id": 8224785,
        "name": "Waterloo",
        "state": "",
        "country": "GB",
        "coord": {
            "lon": -3.03017,
            "lat": 53.474541
        }
    },
    {
        "id": 8224933,
        "name": "PAJOK Pogee,",
        "state": "",
        "country": "SS",
        "coord": {
            "lon": 32.517319,
            "lat": 3.76763
        }
    },
    {
        "id": 8224935,
        "name": "Magwi County",
        "state": "",
        "country": "SS",
        "coord": {
            "lon": 32.301479,
            "lat": 4.12532
        }
    },
    {
        "id": 8226430,
        "name": "Dongji",
        "state": "",
        "country": "CN",
        "coord": {
            "lon": 122.680702,
            "lat": 30.1959
        }
    },
    {
        "id": 8226876,
        "name": "Longqiu",
        "state": "",
        "country": "CN",
        "coord": {
            "lon": 119.512741,
            "lat": 32.829189
        }
    },
    {
        "id": 8226906,
        "name": "Situ",
        "state": "",
        "country": "CN",
        "coord": {
            "lon": 119.637779,
            "lat": 32.888531
        }
    },
    {
        "id": 8227002,
        "name": "Jiulonghu",
        "state": "",
        "country": "CN",
        "coord": {
            "lon": 121.560364,
            "lat": 30.04281
        }
    },
    {
        "id": 8235911,
        "name": "Xinshao",
        "state": "",
        "country": "CN",
        "coord": {
            "lon": 113.606911,
            "lat": 24.808929
        }
    },
    {
        "id": 8246755,
        "name": "Yangshan",
        "state": "",
        "country": "CN",
        "coord": {
            "lon": 122.076851,
            "lat": 30.59416
        }
    },
    {
        "id": 8247183,
        "name": "Borovlyany",
        "state": "",
        "country": "BY",
        "coord": {
            "lon": 27.6754,
            "lat": 54.002201
        }
    },
    {
        "id": 8247406,
        "name": "Lyeskawka",
        "state": "",
        "country": "BY",
        "coord": {
            "lon": 27.7108,
            "lat": 54.002399
        }
    },
    {
        "id": 8247407,
        "name": "Lyasny",
        "state": "",
        "country": "BY",
        "coord": {
            "lon": 27.696301,
            "lat": 54.007198
        }
    },
    {
        "id": 8247409,
        "name": "Bal’shavik",
        "state": "",
        "country": "BY",
        "coord": {
            "lon": 27.5669,
            "lat": 54.003601
        }
    },
    {
        "id": 8256205,
        "name": "Usiazh",
        "state": "",
        "country": "BY",
        "coord": {
            "lon": 28.006981,
            "lat": 54.075981
        }
    },
    {
        "id": 8256270,
        "name": "Октябрьский",
        "state": "",
        "country": "BY",
        "coord": {
            "lon": 28.19813,
            "lat": 54.040588
        }
    },
    {
        "id": 8259949,
        "name": "Vallenar",
        "state": "",
        "country": "CL",
        "coord": {
            "lon": -70.255508,
            "lat": -28.51576
        }
    },
    {
        "id": 8260052,
        "name": "Pontyclun",
        "state": "",
        "country": "GB",
        "coord": {
            "lon": -3.39145,
            "lat": 51.521622
        }
    },
    {
        "id": 8260056,
        "name": "Pentre",
        "state": "",
        "country": "GB",
        "coord": {
            "lon": -3.49133,
            "lat": 51.654289
        }
    },
    {
        "id": 8260059,
        "name": "Catterick Garrison",
        "state": "",
        "country": "GB",
        "coord": {
            "lon": -1.72232,
            "lat": 54.37748
        }
    },
    {
        "id": 8260172,
        "name": "West Greenwich",
        "state": "RI",
        "country": "US",
        "coord": {
            "lon": -71.660042,
            "lat": 41.637001
        }
    },
    {
        "id": 8260265,
        "name": "Buutuo",
        "state": "",
        "country": "LR",
        "coord": {
            "lon": -8.3428,
            "lat": 6.8275
        }
    },
    {
        "id": 8260318,
        "name": "Shanjeev Home",
        "state": "",
        "country": "LK",
        "coord": {
            "lon": 81.84198,
            "lat": 7.38216
        }
    },
    {
        "id": 8260661,
        "name": "Emar",
        "state": "",
        "country": "RU",
        "coord": {
            "lon": 132.156433,
            "lat": 43.20417
        }
    },
    {
        "id": 8261129,
        "name": "Antofagasta",
        "state": "",
        "country": "CL",
        "coord": {
            "lon": -69.409691,
            "lat": -24.27389
        }
    },
    {
        "id": 8261417,
        "name": "Recoleta",
        "state": "",
        "country": "CL",
        "coord": {
            "lon": -70.636383,
            "lat": -33.40881
        }
    },
    {
        "id": 8277210,
        "name": "Beldibi",
        "state": "",
        "country": "TR",
        "coord": {
            "lon": 30.707411,
            "lat": 40.592731
        }
    },
    {
        "id": 10722858.0,
        "name": "Forsytheganj",
        "state": "",
        "country": "BY",
        "coord": {
            "lon": 29.733333,
            "lat": 52.633333
        }
    },
    {
        "id": 71296900.0,
        "name": "Голубинка",
        "state": "",
        "country": "UA",
        "coord": {
            "lon": 33.92,
            "lat": 44.59
        }
    },
    {
        "id": 102908597.0,
        "name": "Gerton",
        "state": "",
        "country": "US",
        "coord": {
            "lon": -82.348056,
            "lat": 35.479167
        }
    }
]